[
  {
    "title": "Mount Koya and the Monk Graveyard",
    "description": "We spent most of our time in the cemetery.  Early morning with wet moss glistening green, watching s…",
    "link": "https://american-alchemist.com/2016/06/03/mount-koya-and-the-monk-graveyard/",
    "date": "2016-06-03T17:32:29.000Z",
    "image": "https://americanalchemistdotcom.files.wordpress.com/2016/05/img_25951.jpg?w=400",
    "latitude": "34.2167",
    "longitude": "135.5833"
  },
  {
    "title": "LA’s Bradbury: The Place You Know but Cannot Name",
    "description": "We have an old school Ouija board to thank for the Bradbury Building.  \nA century ago an architectur…",
    "link": "https://american-alchemist.com/2016/05/18/las-bradbury-the-building-you-know-but-cannot-name/",
    "date": "2016-05-18T21:19:53.000Z",
    "image": "https://americanalchemistdotcom.files.wordpress.com/2016/05/dsc_9443.jpg?w=400",
    "latitude": "34.0505",
    "longitude": "-118.2478"
  },
  {
    "title": "The Affectations and Allure of LA",
    "description": "Two women clasp their fingers through the rungs of a chain link fence.  They’re all but salivating i…",
    "link": "https://american-alchemist.com/2016/05/01/the-affectations-and-allure-of-la/",
    "date": "2016-05-01T15:35:51.000Z",
    "image": "https://americanalchemistdotcom.files.wordpress.com/2016/04/img_3955.jpg?w=400",
    "latitude": "34.0522",
    "longitude": " -118.2437"
  },
  {
    "title": "Yosemite’s Playlist",
    "description": "Fastball’s voice assured me that Anyone can see the road that they walk on is paved in gold as we sn…",
    "link": "https://american-alchemist.com/2016/03/06/yosemites-playlist/",
    "date": "2016-03-06T20:05:31.000Z",
    "image": "https://americanalchemistdotcom.files.wordpress.com/2016/03/img_3794.jpg?w=400",
    "latitude": "37.8651",
    "longitude": "-119.5383"
  },
  {
    "title": "Keepin’ Portland Weird",
    "description": "It’s 90 degrees out, but the man next to us on the bus is draped in chainmail from head to knee, and…",
    "link": "https://american-alchemist.com/2016/02/16/keepin-portland-weird/",
    "date": "2016-02-16T22:25:00.000Z",
    "image": "https://americanalchemistdotcom.files.wordpress.com/2015/03/dsc_3338.jpg?w=400",
    "latitude": "45.5231",
    "longitude": "-122.6765"
  },
  {
    "title": "An Illustrated Food Guide to Japan",
    "description": "Travel opens up the world for us, introducing us to new cultures, and allowing us to marvel at the m…",
    "link": "https://american-alchemist.com/2016/01/20/an-illustrated-food-guide-to-japan/",
    "date": "2016-01-20T21:16:46.000Z",
    "image": "https://americanalchemistdotcom.files.wordpress.com/2016/01/dsc_88301.jpg?w=400",
    "latitude": "36.2048",
    "longitude": "138.2529"
  },
  {
    "title": "Sake Tasting in Takayama",
    "description": "Our Hawaiian t-shirted tour guide Orito is filling us in on the region.  He’s had this job since com…",
    "link": "https://american-alchemist.com/2016/01/03/sake-tasting-in-takayama/",
    "date": "2016-01-03T17:19:08.000Z",
    "image": "https://americanalchemistdotcom.files.wordpress.com/2016/01/dsc_8326.jpg?w=400",
    "latitude": "36.1461",
    "longitude": "137.2522"
  },
  {
    "title": "A Tour through Tokyo Via Haiku: Shibuya and Shinjuku",
    "description": "SHIBUYA\nZebra stripes and the night\nPlay hopscotch in a crowd,\nEndlessly till dawn.\nAccording  to Tr…",
    "link": "http://american-alchemist.com/2015/12/06/a-tour-through-tokyo-via-haiku-shibuya-and-shinjuku/",
    "date": "2015-12-06T20:06:26.000Z",
    "image": "http://americanalchemistdotcom.files.wordpress.com/2015/11/dsc_8396.jpg?w=400",
    "latitude": 35.6640,
    "longitude": 139.6982
  },
  {
    "title": "A Tour through Tokyo Via Haiku: Shimokitazawa, Ginza, and Harajuku",
    "description": "SHIMOKITAZAWA\nCool kid on the block\nStanding in vintage high tops,\nEspresso in hand.\nWe arrived in S…",
    "link": "http://american-alchemist.com/2015/11/27/a-tour-through-tokyo-via-haiku-shimokitazawa-ginza-and-harajuku/",
    "date": "2015-11-27T19:54:19.000Z",
    "image": "http://americanalchemistdotcom.files.wordpress.com/2015/11/img_36051.jpg?w=400",
    "latitude": 35.661606,
    "longitude": 139.666561
  },
  {
    "title": "A Tour Through Tokyo Via Haiku: The Metro, The Fish Market, and the Gardens",
    "description": "TOKYO METRO\nA polite hussle\nMoving in silent masses\nTrain calls cut the air.\nThere’s a weekday unifo…",
    "link": "http://american-alchemist.com/2015/11/23/a-tour-through-tokyo-via-haiku-the-metro-the-fish-market-and-the-gardens-2/",
    "date": "2015-11-23T22:34:46.000Z",
    "image": "http://americanalchemistdotcom.files.wordpress.com/2015/11/dsc_7635.jpg?w=400",
    "latitude": 35.661389,
    "longitude": 139.769722
  },
  {
    "title": "An Afternoon Abroad with a Poor Choice of Footware",
    "description": "Bubblegum is holding my shoe together.  The black perforated flats I packed have proven to be a bad …",
    "link": "http://american-alchemist.com/2015/10/20/an-afternoon-abroad-with-a-poor-choice-of-footware/",
    "date": "2015-10-20T20:35:21.000Z",
    "image": "http://americanalchemistdotcom.files.wordpress.com/2015/10/dsc_7922.jpg?w=400",
    "latitude": 35.011667,
    "longitude": 135.768333
  },
  {
    "title": "The Old Heart of San Francisco",
    "description": "The fog in San Francisco is named Karl.  Karl has his own Twitter account and LinkedIn profile.  He’…",
    "link": "http://american-alchemist.com/2015/08/19/the-old-heart-of-san-francisco/",
    "date": "2015-08-19T04:59:49.000Z",
    "image": "http://americanalchemistdotcom.files.wordpress.com/2015/07/img_1815.jpg?w=400",
    "latitude": 37.783333,
    "longitude": -122.416667
  },
  {
    "title": "Block Party in Seattle",
    "description": "Petrichor is a word constructed from the Greek “petra”, meaning stone, and “ichor”, the fluid that f…",
    "link": "http://american-alchemist.com/2015/07/26/block-party-in-seattle/",
    "date": "2015-07-26T20:11:22.000Z",
    "image": "http://americanalchemistdotcom.files.wordpress.com/2015/07/dsc_6724.jpg?w=400",
    "latitude": 47.622942,
    "longitude": -122.316456
  },
  {
    "title": "Seven Wonders of Oregon Part II: The Columbia River Gorge",
    "description": "Think of a town living in the hall of a mountain king.  Where in it’s shadow people spend their days…",
    "link": "http://american-alchemist.com/2015/07/16/seven-wonders-of-oregon-part-ii-the-columbia-river-gorge/",
    "date": "2015-07-16T16:21:36.000Z",
    "image": "http://americanalchemistdotcom.files.wordpress.com/2015/07/dsc_5972.jpg?w=400",
    "latitude": 45.704722,
    "longitude": -121.791667
  },
  {
    "title": "Honky-Tonk Town in Nashville",
    "description": "Honky Tonks are the main attraction.  Men play cellos as they trill their tongue to twanging strings…",
    "link": "http://american-alchemist.com/2015/07/01/honky-tonk-town-in-nashville/",
    "date": "2015-07-01T16:54:26.000Z",
    "image": "http://americanalchemistdotcom.files.wordpress.com/2014/12/dsc_4307.jpg?w=400",
    "latitude": 36.166667,
    "longitude": -86.783333
  },
  {
    "title": "National Monument: Bandelier",
    "description": "A grandmotherly woman in the ranger station traced routes on our maps with a red pen, writing in sma…",
    "link": "http://american-alchemist.com/2015/05/31/national-monument-bandelier/",
    "date": "2015-05-31T21:20:29.000Z",
    "image": "http://americanalchemistdotcom.files.wordpress.com/2015/05/bandelier-circle.jpg?w=400",
    "latitude": 35.778889,
    "longitude": -106.321111
  },
  {
    "title": "Roadtrippin’ in California",
    "description": "Driving to California has been a dream of mine since the tween years.  After graduation my friends a…",
    "link": "http://american-alchemist.com/2015/05/17/roadtrippin-in-california/",
    "date": "2015-05-17T20:20:49.000Z",
    "image": "http://americanalchemistdotcom.files.wordpress.com/2015/05/dsc_5375-e1432417201465.jpg?w=400",
    "latitude": 37,
    "longitude": -120
  },
  {
    "title": "Tango In Buenos Aires",
    "description": "Lightning blazes in windows but no one looks.  No one even speaks.  Tables across the room are cover…",
    "link": "http://american-alchemist.com/2015/04/25/tango-in-buenos-aires/",
    "date": "2015-04-25T21:14:21.000Z",
    "image": "http://americanalchemistdotcom.files.wordpress.com/2015/03/dsc_3513-e1432417888217.jpg?w=400",
    "latitude": -34.603333,
    "longitude": -58.381667
  },
  {
    "title": "A Non-Definitive Guide to NYC",
    "description": "Landmarks give shape to a city but they don’t define it.  The Eiffel Tower.  The Colosseum.  Big Ben…",
    "link": "http://american-alchemist.com/2015/03/16/a-non-definitive-guide-to-nyc/",
    "date": "2015-03-16T00:15:37.000Z",
    "image": "http://americanalchemistdotcom.files.wordpress.com/2015/03/dsc_3461-e1432418025773.jpg?w=400",
    "latitude": 40.7127,
    "longitude": -74.0059
  },
  {
    "title": "Seven Wonders of Oregon: The Painted Hills",
    "description": "Turquoise tulle rises and falls, rises and falls, a confection in motion and a dream among the hills…",
    "link": "http://american-alchemist.com/2015/01/13/seven-wonders-of-oregon-the-painted-hills/",
    "date": "2015-01-13T21:27:23.000Z",
    "image": "http://americanalchemistdotcom.files.wordpress.com/2014/12/dsc_8603-e1432419234648.jpg?w=400",
    "latitude": 44.661522,
    "longitude": -120.273073
  },
  {
    "title": "National Park: Mount Rainier",
    "description": "Malcolm Middleton is singing about a box and a knife in arguably one of the most depressing songs I’…",
    "link": "http://american-alchemist.com/2015/01/02/national-park-mount-rainier/",
    "date": "2015-01-02T18:20:09.000Z",
    "image": "http://americanalchemistdotcom.files.wordpress.com/2014/12/dsc_9748.jpg?w=400",
    "latitude": 46.85,
    "longitude": -121.75
  },
  {
    "title": "Pit Stop: Cadillac Ranch",
    "description": "Most just shout names.  Ben, Donna, Jake.  Shirley Sux says another.  FMHS Class of 1977, Laredo, Mo…",
    "link": "http://american-alchemist.com/2014/12/06/pit-stop-cadillac-ranch/",
    "date": "2014-12-06T02:06:21.000Z",
    "image": "http://americanalchemistdotcom.files.wordpress.com/2014/12/dsc_4442-e1432419216757.jpg?w=400",
    "latitude": 35.187221,
    "longitude": -101.987041
  }
]

